{
  "sinchon": [
    {
      "name": "코인워시24 신촌점",
      "address": "서울 마포구 신촌로12다길 11 광명빌",
      "phone": "02-3141-8289",
      "hours": true,
      "rating": false,
      "self": true,
      "dry_cleaning":false,
      "shoes":false
    },
    { 
      "name": "워시스토리 셀프빨래방 연희연세대점",
      "address": "서울 서대문구 성산로 381",
      "phone": "0507-1322-9316",
      "hours": true,
      "rating": false,
      "self": true,
      "dry_cleaning":false,
      "shoes":false
    },
    {
      "name": "MONTUNO 셀프빨래방 & 프린트",
      "address": "서울 마포구 신촌로12다길 11 광명빌",
      "phone": "02-3141-8289",
      "hours": true,
      "rating": false,
      "self": true,
      "dry_cleaning":false,
      "shoes":false
    },
    { 
      "name": "워시팡팡 무인셀프빨래방 이대점",
      "address": "서울 서대문구 이화여대3길 27 1층 101호",
      "phone": "0507-1367-3067",
      "hours": true,
      "rating": false,
      "self": true,
      "dry_cleaning":false,
      "shoes":false
    },
    {
      "name": "버블맨24 신촌역점",
      "address": "서울 서대문구 연세로2마길 12",
      "phone": "0507-1376-3627",
      "hours": true,
      "rating": 5,
      "self": true,
      "dry_cleaning":false,
      "shoes":false
    },
    {
      "name": "런드리익스프레스샵 신촌점",
      "address": "서울 마포구 신촌로12다길 20 1층",
      "phone": "0507-1312-3860",
      "hours": true,
      "rating": false,
      "self": true,
      "dry_cleaning":false,
      "shoes":false
    },
    {
      "name": "화이트365 신촌점",
      "address": "서울 서대문구 연세로4길 54",
      "phone": "0507-1404-4165",
      "hours": true,
      "rating": false,
      "self": true,
      "dry_cleaning":false,
      "shoes":false
    },
    {
      "name": "에코런드렛 빨래방&아이스크림 신촌점",
      "address": "서울 마포구 백범로 8 우정마샹스오피스텔 1층 103호",
      "phone": "0507-1410-1399",
      "hours": true,
      "rating": 4.85,
      "self": true,
      "dry_cleaning":false,
      "shoes":false
    },
    {
      "name": "연대빨래방",
      "address": "서울 마포구 신촌로24길 4 1층",
      "phone": "0507-1478-2089",
      "hours": true,
      "rating": false,
      "self": true,
      "dry_cleaning":false,
      "shoes":false
    },
    {
      "name": "런드리데이 신촌점",
      "address": "서울 서대문구 연세로7안길 53",
      "phone": "010-6419-2930",
      "hours": true,
      "rating": false,
      "self": true,
      "dry_cleaning":false,
      "shoes":false
    },
    {
      "name": "런드리익스프레스샵 x 스너글 신촌대현점",
      "address": "서울 서대문구 연세로2길 89 1층",
      "phone": "1577-2871",
      "hours": true,
      "rating": false,
      "self": true,
      "dry_cleaning":false,
      "shoes":false
    },
    {
      "name": "런드리익스프레스샵 신촌창천스쿨점",
      "address": "서울 마포구 노고산동 고산길 68 1층",
      "phone": "1577-2871",
      "hours": true,
      "rating": false,
      "self": true,
      "dry_cleaning":false,
      "shoes":false
    },
    {
      "name": "워시프레쉬 신촌점",
      "address": "서울 서대문구 연세로2가길 4 2층",
      "phone": "0507-1422-0821",
      "hours": true,
      "rating": false,
      "self": true,
      "dry_cleaning":false,
      "shoes":false
    },
    {
      "name": "세탁풍경 창천점",
      "address": "서울 서대문구 창천동 4-29",
      "phone": "010-3903-2936",
      "hours": true,
      "rating": false,
      "self": true,
      "dry_cleaning":false,
      "shoes":false
    
    },
    {
      "name": "버블맨24 홍대점",
      "address": "서울 마포구 와우산로30길 3 1층 버블맨 24 홍대점",
      "phone": "010-8694-9244",
      "hours": true,
      "rating": false,
      "self": true,
      "dry_cleaning":false,
      "shoes":false
    },
    {
      "name": "런드리익스프레스샵 x 스너글 이대점",
      "address": "서울 서대문구 이화여대5길 35 1층",
      "phone": "1577-2871",
      "hours": true,
      "rating": false,
      "self": true,
      "dry_cleaning":false,
      "shoes":false
    },
    {
      "name": "에코런드렛 이대점",
      "address": "서울 서대문구 이화여대3길 29 102호",
      "phone": "0507-1331-3179",
      "hours": true,
      "rating": false,
      "self": true,
      "dry_cleaning":false,
      "shoes":false
    },
    {
      "name": "큐브워시 이대점",
      "address": "서울 서대문구 이화여대5길 32 1층 101호",
      "phone": "0507-1444-4223",
      "hours": true,
      "rating": false,
      "self": true,
      "dry_cleaning":false,
      "shoes":false
    },
    {
      "name": "런드리샵 홍대점",
      "address": "서울 마포구 신촌로2안길 44 1층 1호",
      "phone": "0507-1442-3966",
      "hours": true,
      "rating": false,
      "self": true,
      "dry_cleaning":false,
      "shoes":false
    },
    {
      "name": "런드리24 신촌숲아이파크",
      "address": "서울 마포구 광성로 17 신촌숲아이파크 106동 지하1층 커뮤니티센터 내",
      "phone": "1544-4335",
      "hours": true,
      "rating": false,
      "self": true,
      "dry_cleaning":false,
      "shoes":false
    },
    {
      "name": "크린토피아 신촌포스빌점",
      "address": "서울 마포구 신촌로 150",
      "phone": "02-711-8182",
      "rating": 4.7,
      "self": false,
      "dry_cleaning":true,
      "shoes":true,
      "hours": {
        "default": "09:30 - 20:00",
        "days": {
          "월": "default",
          "화": "default",
          "수": "default",
          "목": "default",
          "금": "default",
          "토": "10:00 - 18:00",
          "일": "휴무"
        }
      }
      
      
    },
    {
      "name": "우리옷수선 운동화이불빨래방",
      "address": "서울 서대문구 신촌로11길 37 101호",
      "phone": "02-324-8284",
      "rating": false,
      "self": false,
      "dry_cleaning":true,
      "shoes":true,
      "hours": {
        "default": "08:00 - 21:00",
        "days": {
          "월": "default",
          "화": "default",
          "수": "default",
          "목": "default",
          "금": "default",
          "토": "09:00 - 19:00",
          "일": "휴무"
        }
      } 
    },
    {
      "name": "크린토피아 서강대점",
      "address": "서울 마포구 백범로 28 제2서강빌딩",
      "phone": "02-718-0022",
      "rating": 4.26,
      "self": false,
      "dry_cleaning":true,
      "shoes":true,
      "hours": {
        "default": "09:30 - 20:00",
        "days": {
          "월": "default",
          "화": "default",
          "수": "default",
          "목": "default",
          "금": "default",
          "토": "10:00 - 18:00",
          "일": "휴무"
        }
      }
    },
    {
      "name": "그랑자이세탁소",
      "address": "서울 마포구 대흥로 175 마포그랑자이 상가 4동 1층",
      "phone": "02-706-3351",
      "rating": 4.08,
      "self": false,
      "dry_cleaning":true,
      "shoes":true,
      "hours": {
        "default": "09:00 - 20:00",
        "days": {
          "월": "default",
          "화": "default",
          "수": "default",
          "목": "default",
          "금": "default",
          "토": "09:00 - 18:00",
          "일": "휴무"
        }
      }
    },
    {
      "name": "조양세탁소",
      "address": "서울 서대문구 신촌로9길 8",
      "phone": "0507-1397-1200",
      "rating": false,
      "self": false,
      "dry_cleaning":true,
      "shoes":true,
      "hours": {
        "default": "07:30 - 21:30",
        "days": {
          "월": "default",
          "화": "default",
          "수": "default",
          "목": "default",
          "금": "default",
          "토": "default",
          "일": "휴무"
        }
      }
    }
  ],
  "kondae": [
    {
      "name": "화이트365 건대후문점",
      "address": "서울 광진구 능동로16길 54",
      "phone": "010-2446-0365",
      "hours": true,
      "rating": 4.75,
      "self": true,
      "dry_cleaning":false,
      "shoes":false
    },
    {
      "name": "화이트365 구의초점",
      "address": "서울 광진구 광나루로30나길 14 1층",
      "phone": "010-2446-0365",
      "hours": true,
      "rating": 4.4,
      "self": true,
      "dry_cleaning":false,
      "shoes":false
    },
    {
      "name": "워시피플 셀프빨래방 광진구화양동점",
      "address": "서울 광진구 동일로 178 1층 108호",
      "phone": "010-9381-2432",
      "hours": true,
      "rating": 4.82,
      "self": true,
      "dry_cleaning":false,
      "shoes":false
    },
    {
      "name": "워시피플 셀프빨래방 광진구화양동점",
      "address": "서울 광진구 동일로 178 1층 108호",
      "phone": "010-9381-2432",
      "hours": true,
      "rating": 4.65,
      "self": true,
      "dry_cleaning":false,
      "shoes":false
    },
    {
      "name": "런드리익스프레스 x 바른생각 건대점",
      "address": "서울 광진구 능동로13길 84",
      "phone": "070-5118-0541",
      "hours": true,
      "rating": 4.8,
      "self": true,
      "dry_cleaning":false,
      "shoes":false
    },
    {
      "name": "코인워시365 광진아크로텔점",
      "address": "서울 광진구 아차산로 355 107호",
      "phone": "010-2088-3084",
      "hours": true,
      "rating": 4.7,
      "self": true,
      "dry_cleaning":false,
      "shoes":false
    },
    {
      "name": "런드리익스프레스샵 구의점",
      "address": "서울 광진구 아차산로49길 36 1층",
      "phone": "070-5118-0541",
      "hours": true,
      "rating": 4.6,
      "self": true,
      "dry_cleaning":false,
      "shoes":false
    },
    {
      "name": "샤인워시 화양점",
      "address": "서울 광진구 능동로17길 18 지층",
      "phone": "0507-1377-8737",
      "hours": true,
      "rating": 4.78,
      "self": true,
      "dry_cleaning":false,
      "shoes":false
    },
    {
      "name": "버블맨24 건대점",
      "address": "서울 광진구 동일로30길 41 . 1층(화양동)",
      "phone": "0507-1344-6941",
      "hours": true,
      "rating": 4.85,
      "self": true,
      "dry_cleaning":false,
      "shoes":false
    },
    {
      "name": "워시프렌즈 셀프빨래방 건대자양점",
      "address": "서울 광진구 능동로 69 자양호반써밋 지하1층 셀프빨래방",
      "phone": "070-7107-3230",
      "hours": true,
      "rating": 4.5,
      "self": true,
      "dry_cleaning":false,
      "shoes":false
    },
    {
      "name": "워시유니버스 화양점",
      "address": "서울 광진구 능동로19길 35 광진코지웰 1층 102-2호",
      "phone": "0507-1370-5830",
      "hours": true,
      "rating": 4.72,
      "self": true,
      "dry_cleaning":false,
      "shoes":false
    },
    {
      "name": "워시프레쉬 빌리브24시 셀프빨래방",
      "address": "서울특별시 광진구 능동로 172 빌리브 인테라스 104호 셀프빨래방",
      "phone": "010-9260-1751",
      "hours": true,
      "rating": 4.55,
      "self": true,
      "dry_cleaning":false,
      "shoes":false
    },
    {
      "name": "코인워시 자양동셀프빨래방",
      "address": "서울 광진구 동일로16길 14",
      "phone": "02-498-8832",
      "hours": true,
      "rating": 4.9,
      "self": true,
      "dry_cleaning":false,
      "shoes":false
    },
    {
      "name": "24시셀프빨래방 건대점",
      "address": "서울 광진구 아차산로42길 58",
      "phone": "0507-1417-0037",
      "hours": true,
      "rating": 4.4,
      "self": true,
      "dry_cleaning":false,
      "shoes":false
    },
    {
      "name": "워시팡팡 셀프빨래방 광진점",
      "address": "서울 광진구 아차산로42길 58",
      "phone": "0507-1417-0037",
      "hours": true,
      "rating": 4.88,
      "self": true,
      "dry_cleaning":false,
      "shoes":false
    },
    {
      "name": "버블맨24 자양점 셀프빨래방",
      "address": "서울 광진구 자양로13길 27 1층 버블맨24 자양점",
      "phone": "0507-1421-1140",
      "hours": true,
      "rating": 4.62,
      "self": true,
      "dry_cleaning":false,
      "shoes":false
    },
    {
      "name": "24시셀프빨래방 화이트365 군자점",
      "address": "서울 광진구 아차산로 492",
      "phone": "0507-1361-7752",
      "hours": true,
      "rating": 4.76,
      "self": true,
      "dry_cleaning":false,
      "shoes":false
    },
    {
      "name": "워시앤클린 자양점",
      "address": "서울 광진구 자양로13가길 7",
      "phone": "010-2678-4769",
      "hours": true,
      "rating": 4.52,
      "self": true,
      "dry_cleaning":false,
      "shoes":false
    },
    {
      "name": "런드리24 건대하이뷰점",
      "address": "서울 광진구 광나루로 386 하이뷰오피스텔 2층 206호",
      "phone": "1544-4335",
      "hours": true,
      "rating": 4.6,
      "self": true,
      "dry_cleaning":false,
      "shoes":false
    },
    {
      "name": "워시엔조이 건대자양점",
      "address": "서울 광진구 아차산로40길 41",
      "phone": "0507-1332-9038",
      "hours": true,
      "rating": 4.8,
      "self": true,
      "dry_cleaning":false,
      "shoes":false
    },
    {
      "name": "크린토피아 우성7차점",
      "address": "서울 광진구 아차산로36길 35 우성7차아파트 상가 109동",
      "phone": "02-452-2304",
      "rating": 4.27,
      "self": false,
      "dry_cleaning":true,
      "shoes":true,
      "hours": {
        "default": "09:30 - 20:00",
        "days": {
          "월": "default",
          "화": "default",
          "수": "default",
          "목": "default",
          "금": "default",
          "토": "default",
          "일": "휴무"
        }
      }
    },
    {
      "name": "크린토피아 광진자양우성점",
      "address": "서울 광진구 능동로 172 빌리브 인테라스",
      "phone": "02-458-7986",
      "rating": 4.42,
      "self": false,
      "dry_cleaning":true,
      "shoes":true,
      "hours": {
        "default": "09:30 - 20:00",
        "days": {
          "월": "default",
          "화": "default",
          "수": "default",
          "목": "default",
          "금": "default",
          "토": "10:00 - 20:00",
          "일": "휴무"
        }
      }
    },
    {
      "name": "월드크리닝 광진화양점",
      "address": "서울 광진구 동일로30길 32 1층",
      "phone": "0507-1479-4411",
      "rating": 4.47,
      "self": false,
      "dry_cleaning":true,
      "shoes":true,
      "hours": {
        "default": "09:00 - 20:00",
        "days": {
          "월": "default",
          "화": "default",
          "수": "default",
          "목": "default",
          "금": "default",
          "토": "09:00 - 18:30",
          "일": "휴무"
        }
      }
    },
    {
      "name": "크린토피아 화양점",
      "address": "서울 광진구 아차산로21길 60",
      "phone": "02-468-5578",
      "rating": 4.27,
      "self": false,
      "dry_cleaning":true,
      "shoes":true,
      "hours": {
        "default": "08:30 - 22:00",
        "days": {
          "월": "default",
          "화": "default",
          "수": "default",
          "목": "default",
          "금": "default",
          "토": "default",
          "일": "휴무"
        }
      }
    },
    {
      "name": "한아름빨래방",
      "address": "서울 광진구 능동로13길 46",
      "phone": "0507-1375-7116",
      "rating": 4.61,
      "self": false,
      "dry_cleaning":true,
      "shoes":true,
      "hours": {
        "default": "08:30 - 21:00",
        "days": {
          "월": "default",
          "화": "default",
          "수": "default",
          "목": "default",
          "금": "default",
          "토": "default",
          "일": "12:00 - 18:00"
        }
      }
    }    
  ]
}